{
    "actions": [
        {
            "id": 1,
            "type": "concert",
            "title": "Tocotronic",
            "start": "00:00",
            "end": "12:00",
            "location": {
                "address": "Mustermanstraße 1b",
                "city": "Berlin",
                "postCode": "11111"
            },
            "application_deadline" : {
                "end": "00:00",
                "day": 21,
                "month": "Mars"  
            },
            "participants": {
                "limit": 10
            }
        },
        {
            "id": 2,
            "type": "Festival",
            "title": "Testival",
            "start": "00:00",
            "end": "12:00",
            "location": {
                "address": "Mustermanstraße 1b",
                "city": "Berlin",
                "postCode": "11111"
            },
            "application_deadline" : {
                "end": "00:00",
                "day": 21,
                "month": "Mars"  
            },
            "participants": {
                "limit": 10
            }
        },
        {
            "id": 3,
            "type": "Die Ärzte",
            "title": "Concert",
            "start": "00:00",
            "end": "12:00",
            "location": {
                "address": "Mustermanstraße 1b",
                "city": "Berlin",
                "postCode": "11111"
            },
            "application_deadline" : {
                "end": "00:00",
                "day": 21,
                "month": "Mars"  
            },
            "participants": {
                "limit": 10
            }
        },
        {
            "id": 4,
            "type": "Netzwerktreffen",
            "title": "Kliemannsland",
            "start": "00:00",
            "end": "12:00",
            "location": {
                "address": "Mustermanstraße 1b",
                "city": "Berlin",
                "postCode": "11111"
            },
            "application_deadline" : {
                "end": "00:00",
                "day": 21,
                "month": "Mars"  
            },
            "participants": {
                "limit": 10
            }
        }
    ]
}